[
  {
    "name": "Botique HaGiva",
    "coordinates": [
      32.07881561354166,
      34.848796067817716
    ],
    "miklatNum": 503,
    "size": 100,
    "address": "HaAvoda Street 1"
  },
  {
    "name": "Shufersal",
    "coordinates": [
      32.077288441710174,
      34.84674331300464
    ],
    "miklatNum": 514,
    "size": 150,
    "address": "David Ben Gurion Street 18"
  },
  {
    "name": "Gan Golani",
    "coordinates": [
      32.07506267625827,
      34.849312567465915
    ],
    "miklatNum": 511,
    "size": 150,
    "address": "Herzl Street 4"
  },
  {
    "name": "Yad LBanim",
    "coordinates": [
      32.07606969579195,
      34.84869970088741
    ],
    "miklatNum": 510,
    "size": 70,
    "address": "Sderot HaGiborim"
  },
  {
    "name": "Kidum Noar",
    "coordinates": [
      32.07987354934281,
      34.85221805322301
    ],
    "miklatNum": 507,
    "size": 100,
    "address": "Be'eri St & Ha-Zeitim St"
  },
  {
    "name": "Mercaz Hatachlut",
    "coordinates": [
      32.08074242484404,
      34.85168170086993
    ],
    "miklatNum": 505,
    "size": 120,
    "address": "HaNasi Street 18"
  },
  {
    "name": "French Synagogue",
    "coordinates": [
      32.081023917776726,
      34.851260216497394
    ],
    "miklatNum": 506,
    "size": 120,
    "address": "HaNasi Street 17"
  },
  {
    "name": "Beit El Synagogue",
    "coordinates": [
      32.081032,
      34.849944
    ],
    "miklatNum": 504,
    "size": 100,
    "address": "HaNasi Street 13-14"
  },
  {
    "name": "Beit Midrash",
    "coordinates": [
      32.081341,
      34.849216
    ],
    "miklatNum": 509,
    "size": 100,
    "address": "HaNasi Street 9-12"
  },
  {
    "name": "Midrash Shmuel",
    "coordinates": [
      32.081649,
      34.848609
    ],
    "miklatNum": 501,
    "size": 128,
    "address": "HaNasi Street 5-8"
  },
  {
    "name": "Community Center Branch",
    "coordinates": [
      32.082125,
      34.847213
    ],
    "miklatNum": 508,
    "size": 100,
    "address": "HaNasi Street 1-4"
  }
]